[
  {
    "id": "hopital_mohammed_v_eljadida",
    "name": "Hôpital Provincial Mohammed V",
    "lat": 33.235397,
    "lng": -8.479131,  
    "locality": "El Jadida",
    "specialties": ["Urgences", "Traumatologie", "Médecine Générale"],
    "available_beds": 45
  },
  {
    "id": "chu_ibn_rochd_casa",
    "name": "CHU Ibn Rochd",
    "lat": 33.5731,
    "lng": -7.5898,
    "locality": "Casablanca",
    "specialties": ["Urgences", "Cardiologie", "Neurologie"],
    "available_beds": 120
  },
  {
    "id": "hopital_moulay_youssef_casa",
    "name": "Hôpital Régional Moulay Youssef",
    "lat": 33.5912,
    "lng": -7.6320,
    "locality": "Casablanca",
    "specialties": ["Urgences", "Pneumologie"],
    "available_beds": 60
  },
  {
    "id": "chu_ibn_sina_rabat",
    "name": "CHU Ibn Sina",
    "lat": 33.9845,
    "lng": -6.8677,
    "locality": "Rabat",
    "specialties": ["Urgences", "Chirurgie", "Oncologie"],
    "available_beds": 150
  },
  {
    "id": "hopital_des_specialites_rabat",
    "name": "Hôpital des Spécialités (Rabat)",
    "lat": 33.9830,
    "lng": -6.8650,
    "locality": "Rabat",
    "specialties": ["Urgences", "Ophtalmologie", "ORL"],
    "available_beds": 80
  },
  {
    "id": "chu_mohammed_vi_marrakech",
    "name": "CHU Mohammed VI (Hôpital Ar-Razi)",
    "lat": 31.6510,
    "lng": -8.0443,
    "locality": "Marrakesh",
    "specialties": ["Urgences", "Grands Brûlés", "Traumatologie"],
    "available_beds": 110
  },
  {
    "id": "hopital_ibn_tofail_marrakech",
    "name": "Hôpital Ibn Tofail",
    "lat": 31.6388,
    "lng": -8.0153,
    "locality": "Marrakesh",
    "specialties": ["Urgences", "Neurochirurgie"],
    "available_beds": 75
  },
  {
    "id": "chu_hassan_ii_fes",
    "name": "CHU Hassan II",
    "lat": 34.0027,
    "lng": -5.0136,
    "locality": "Fes",
    "specialties": ["Urgences", "Toutes Spécialités"],
    "available_beds": 180
  },
  {
    "id": "hopital_ghassani_fes",
    "name": "Hôpital Al Ghassani",
    "lat": 34.0325,
    "lng": -5.0102,
    "locality": "Fes",
    "specialties": ["Urgences", "Psychiatrie", "Pédiatrie"],
    "available_beds": 90
  },
  {
    "id": "hopital_mohammed_v_tanger",
    "name": "Hôpital Mohammed V (Tanger)",
    "lat": 35.7708,
    "lng": -5.8244,
    "locality": "Tangier",
    "specialties": ["Urgences", "Chirurgie"],
    "available_beds": 100
  },
  {
    "id": "hopital_hassan_ii_agadir",
    "name": "Hôpital Régional Hassan II",
    "lat": 30.4278,
    "lng": -9.5981,
    "locality": "Agadir",
    "specialties": ["Urgences", "Traumatologie"],
    "available_beds": 130
  },
  {
    "id": "chu_mohammed_vi_oujda",
    "name": "CHU Mohammed VI (Oujda)",
    "lat": 34.6814,
    "lng": -1.9097,
    "locality": "Oujda",
    "specialties": ["Urgences", "Oncologie", "Psychiatrie"],
    "available_beds": 140
  },
  {
    "id": "hopital_provincial_safi",
    "name": "Hôpital Provincial Mohammed V (Safi)",
    "lat": 32.2985,
    "lng": -9.2240,
    "locality": "Safi",
    "specialties": ["Urgences", "Maternité"],
    "available_beds": 60
  },
  {
    "id": "hopital_provincial_meknes",
    "name": "Hôpital Mohammed V (Meknès)",
    "lat": 33.8935,
    "lng": -5.5473,
    "locality": "Meknes",
    "specialties": ["Urgences", "Chirurgie"],
    "available_beds": 85
  }
]